city_name,city_id,lat,lon,unix_dt,temp_max,humidity,cloudiness,windspeed
East London,1006984,-33.02,27.91,1579824026,20.14,78,61,5.81
Cape Town,3369157,-33.93,18.42,1579823927,20.0,68,0,8.7
Toamasina,1053384,-18.17,49.38,1579824026,24.0,83,75,8.2
Ushuaia,3833367,-54.8,-68.3,1579823296,10.0,71,75,5.1
Tasiilaq,3424607,65.61,-37.64,1579824027,-9.0,43,23,8.2
Tiznit,2527087,29.58,-9.5,1579824027,9.79,77,12,1.05
Kiryat Gat,293842,31.61,34.76,1579824003,12.78,93,75,6.2
Yakeshi,2033536,49.28,120.73,1579824027,-30.36,100,16,2.11
Buraidah,107304,26.33,43.98,1579824027,4.0,64,0,0.79
Lumberton,4477525,34.62,-79.01,1579824027,10.0,81,1,2.1
Hamilton,4513583,39.18,-84.53,1579823737,7.0,56,90,2.37
Kapaa,5848280,22.08,-159.32,1579824028,27.0,61,90,4.1
Hong Kong,1819729,22.29,114.16,1579823976,22.78,83,40,3.1
Vaini,4032243,-21.2,-175.2,1579824028,29.0,74,20,4.1
Ivanivka,707453,46.72,34.55,1579824028,-1.13,80,17,5.43
Batesville,4100525,35.77,-91.64,1579823944,6.0,100,90,2.6
Port Alfred,964432,-33.59,26.89,1579824028,18.33,92,86,1.79
Sorland,3137469,67.67,12.69,1579823991,1.0,69,75,6.7
Avera,4231997,33.19,-82.53,1579824028,12.0,57,90,3.1
Hobart,2163355,-42.88,147.33,1579824018,17.78,51,75,4.6
Praia da Vitoria,3372760,38.73,-27.07,1579823976,12.0,93,75,4.19
Bluff,2206939,-46.6,168.33,1579823970,26.67,50,66,2.24
Nikolskoye,546105,59.7,30.79,1579824029,1.11,96,90,3.0
New Norfolk,2155415,-42.78,147.06,1579823985,17.78,51,75,4.6
Andira,3401188,-0.74,-47.84,1579824029,27.58,82,90,7.47
Castro,3466704,-24.79,-50.01,1579823975,15.55,98,100,3.02
Abadan,162099,38.05,58.21,1579824029,2.0,93,75,2.1
Butaritari,2110227,3.07,172.79,1579823969,29.25,72,31,4.96
Ketchikan,5554428,55.34,-131.65,1579824029,7.0,100,90,4.6
Marawi,1701054,8.0,124.29,1579824030,25.0,88,26,3.13
Ahipara,2194098,-35.17,173.17,1579824030,30.0,68,0,0.89
Lebu,3883457,-37.62,-73.65,1579823908,16.83,66,17,4.45
Jamestown,5122534,42.1,-79.24,1579823791,4.44,43,90,2.6
Busselton,2075265,-33.65,115.33,1579823838,22.22,43,2,3.89
Yulara,6355222,-25.24,130.99,1579824030,26.0,34,72,7.7
Provideniya,4031574,64.38,-173.3,1579824030,-19.0,70,89,4.0
Tuktoyaktuk,6170031,69.45,-133.04,1579824030,-26.0,75,40,4.6
Port-Gentil,2396518,-0.72,8.78,1579824030,28.0,94,20,1.0
Cidreira,3466165,-30.18,-50.21,1579823969,23.16,74,29,9.89
Kaeo,2189343,-35.1,173.78,1579823934,30.0,69,2,0.89
Half Moon Bay,5354943,37.46,-122.43,1579824031,16.11,67,1,2.6
Mataura,6201424,-46.19,168.86,1579824031,25.96,53,56,0.36
Puerto Ayora,3652764,-0.74,-90.35,1579824031,29.0,62,75,4.6
Sabang,1214026,5.89,95.32,1579824031,28.12,78,37,8.51
Santo Antonio do Ica,3662395,-3.1,-67.94,1579824031,26.66,83,87,0.61
Huarmey,3939168,-10.07,-78.15,1579824031,22.54,77,98,1.98
Punta Arenas,3874787,-53.15,-70.92,1579824032,11.0,53,20,11.3
Atuona,4020109,-9.8,-139.03,1579823983,27.3,77,38,5.72
Chiang Klang,1611195,19.29,100.86,1579824032,15.0,87,27,0.67
Torbay,6167817,47.67,-52.73,1579824032,-2.78,79,90,6.2
Cururupu,3401148,-1.83,-44.87,1579824032,24.22,96,100,0.96
Oksovskiy,515966,62.61,39.9,1579824032,-10.69,95,96,1.81
French Harbor,3609667,16.35,-86.43,1579824032,25.0,73,20,6.2
Serebryanyy Bor,2016977,56.8,124.8,1579824032,-36.03,100,100,0.54
Cayenne,3382160,4.93,-52.33,1579824004,23.0,88,24,1.63
Mahebourg,934322,-20.41,57.7,1579824033,26.67,94,75,5.67
Norman Wells,6089245,65.28,-126.83,1579824033,-19.0,84,90,2.6
Hasaki,2112802,35.73,140.83,1579824033,7.78,100,40,1.5
Hualmay,3939761,-11.1,-77.61,1579824033,21.99,78,93,1.08
Westport,4845585,41.14,-73.36,1579824033,5.0,69,1,2.37
Cascais,2269594,38.7,-9.42,1579824033,10.56,100,40,2.1
Khash,1160571,28.22,61.22,1579824033,8.08,92,75,3.97
Carutapera,3402648,-1.2,-46.02,1579824033,27.72,80,98,7.0
Aklavik,5882953,68.22,-135.01,1579824034,-24.0,75,75,1.0
Peruibe,3454061,-24.32,-47.0,1579824034,23.55,79,100,2.73
Deputatsky,2028164,69.3,139.9,1579824034,-35.74,97,61,1.12
Arraial do Cabo,3471451,-22.97,-42.03,1579824034,21.68,87,100,3.15
Bethel,5282297,41.37,-73.41,1579823995,3.33,63,1,0.79
Qaanaaq,3831208,77.48,-69.36,1579824034,-24.25,60,0,2.42
Portland,5746545,45.52,-122.68,1579823885,13.33,93,90,2.1
Tagusao,1684245,9.19,117.81,1579824034,24.7,76,26,0.65
Bansang,2413866,13.43,-14.65,1579824034,29.93,15,100,4.32
Rikitea,4030556,-23.12,-134.97,1579823574,26.28,79,0,7.82
Narsaq,3421719,60.92,-46.05,1579824035,-5.0,62,100,5.7
Salalah,286621,17.02,54.09,1579824023,24.0,78,75,1.0
Port Lincoln,2063036,-34.73,135.87,1579824035,19.93,55,4,5.11
Kodiak,5866583,57.79,-152.41,1579824035,-7.0,44,40,12.3
Paamiut,3421193,61.99,-49.67,1579823940,-3.05,93,100,15.95
Kaitangata,2208248,-46.28,169.85,1579823905,15.39,83,99,5.79
Puquio,3931223,-14.7,-74.13,1579824035,5.22,92,100,3.41
Boke,2422924,10.94,-14.3,1579824035,23.43,44,58,1.07
Porto Walter,3662761,-8.27,-72.74,1579824035,24.59,95,100,1.37
Jumla,1283285,29.27,82.18,1579824036,-8.73,53,0,2.92
Leningradskiy,2123814,69.38,178.42,1579824036,-32.35,95,11,0.61
Avarua,4035715,-21.21,-159.78,1579823975,28.0,88,90,5.7
Mar del Plata,3430863,-38.0,-57.56,1579823991,28.33,61,75,4.6
Elko,5703673,41.0,-115.5,1579824036,10.0,95,1,2.6
Vao,2137773,-22.67,167.48,1579823995,25.46,73,100,6.95
Nanortalik,3421765,60.14,-45.24,1579824017,-1.45,92,100,7.52
Tiksi,2015306,71.69,128.87,1579824036,-34.1,83,4,2.05
Kavieng,2094342,-2.57,150.8,1579824037,28.67,69,55,3.89
Bundaberg,2173323,-24.85,152.35,1579824007,28.89,83,75,1.5
Carnarvon,2074865,-24.87,113.63,1579823985,26.0,57,0,5.1
Bowen,2174444,-20.02,148.23,1579824037,31.11,70,40,0.5
Hilo,5855927,19.73,-155.09,1579823969,28.0,61,90,2.1
Albany,5106841,42.6,-73.97,1579824037,0.0,50,1,0.42
Nohar,1261234,29.18,74.77,1579824037,10.24,47,90,3.81
Caravelas,3466980,-17.71,-39.25,1579824037,26.46,84,100,12.8
Yellowknife,6185377,62.46,-114.35,1579824038,-20.0,83,75,3.6
Shingu,1847947,33.73,135.98,1579824038,11.0,93,75,1.5
Naifaru,1337616,5.44,73.37,1579824038,28.5,78,70,10.33
Ancud,3899695,-41.87,-73.82,1579824038,18.0,52,1,6.2
Linjiang,2036069,41.81,126.91,1579824038,-17.58,85,0,0.88
Muzaffarabad,1169607,34.37,73.47,1579824038,-2.2,42,0,5.09
Hithadhoo,1282256,-0.6,73.08,1579824038,28.7,78,14,5.63
Carahue,3896774,-38.7,-73.17,1579824039,20.0,64,13,5.1
Mindelo,3374462,16.89,-24.98,1579823833,19.81,77,31,4.31
Shimoda,1852357,34.67,138.95,1579824039,12.0,87,75,4.1
Kanniyakumari,1268008,8.08,77.57,1579824010,26.06,76,0,13.85
Tabou,2281120,4.42,-7.35,1579824039,25.71,91,42,1.3
Bredasdorp,1015776,-34.53,20.04,1579824039,20.0,77,79,4.6
Upernavik,3418910,72.79,-56.15,1579824039,-21.03,59,37,3.72
Saint-Philippe,935215,-21.36,55.77,1579823986,26.0,100,100,1.5
Poronaysk,2121909,49.22,143.12,1579824039,-13.36,94,100,3.71
Geraldton,2070998,-28.77,114.6,1579824040,20.0,72,0,4.6
Inverness,2646088,57.48,-4.22,1579824040,8.89,93,100,3.6
Waipawa,2206874,-41.41,175.52,1579823745,27.78,77,61,8.7
Port Elizabeth,964420,-33.92,25.57,1579823928,19.0,77,11,5.7
Porto-Novo,2392087,6.5,2.6,1579823745,28.0,88,20,3.1
Kwang Binh,1582886,17.48,106.6,1579824040,21.49,93,95,0.33
Kunashak,1501402,55.7,61.55,1579824040,-6.0,73,0,6.0
Ilheus,3461408,-14.79,-39.05,1579823817,26.0,94,90,4.52
Hambantota,1244926,6.12,81.12,1579824041,26.47,80,0,10.15
Port Hardy,6111862,50.7,-127.42,1579824041,10.0,87,75,3.6
Daru,2098329,-9.08,143.21,1579824041,31.28,61,92,2.0
Methoni,257122,36.82,21.7,1579824041,10.56,75,63,2.6
Ponta do Sol,2264557,32.67,-17.1,1579823841,15.0,58,20,3.1
Kirakira,2178753,-10.45,161.92,1579824041,29.8,65,0,2.46
Arrondissement de Nogent-le-Rotrou,2990271,48.33,1.0,1579824041,0.56,70,100,2.1
La Ronge,6050066,55.1,-105.28,1579823989,-6.0,85,90,2.6
Nome,5870133,64.5,-165.41,1579824042,-19.44,76,1,2.12
Boyuibe,3923015,-20.42,-63.28,1579824042,29.0,42,20,2.56
Sao Miguel do Araguaia,3448455,-13.28,-50.16,1579824042,22.7,98,96,3.63
Muravlenko,1540711,63.79,74.52,1579824042,-9.03,95,100,4.32
Montepuez,1037125,-13.13,39.0,1579824042,20.71,97,74,1.36
Erenhot,2037485,43.65,111.98,1579824042,-12.69,83,0,2.5
Hibbing,5030005,47.43,-92.94,1579824042,-3.0,86,90,3.1
Hermanus,3366880,-34.42,19.23,1579823969,20.0,82,50,5.36
San Patricio,3985168,19.22,-104.7,1579824043,29.0,70,75,3.09
Brandon,4148757,27.94,-82.29,1579824008,20.0,88,90,4.6
La Sarre,6050194,48.8,-79.2,1579824043,-14.04,96,92,2.26
Luderitz,3355672,-26.65,15.16,1579824043,19.0,88,0,1.01
Watertown,4954611,42.37,-71.18,1579824043,3.0,55,1,2.13
Tessalit,2449893,20.2,1.01,1579824043,22.12,15,52,3.56
Coquimbo,3893629,-29.95,-71.34,1579824043,21.0,64,38,5.1
Zhangjiakou Shi Xuanhua Qu,2033574,40.61,115.04,1579824044,-9.4,74,4,0.58
Flinders,6255012,-34.58,150.86,1579823819,26.11,64,75,6.2
Sao Filipe,3374210,14.9,-24.5,1579823762,21.98,74,1,3.92
Nuuk,3421319,64.18,-51.72,1579824044,-3.0,86,100,21.6
Provincia di Imperia,3175531,43.97,7.78,1579824044,11.11,71,17,4.1
Haines Junction,5969025,60.75,-137.51,1579824011,-17.57,97,100,2.19
Coos Bay,5720495,43.37,-124.22,1579824044,15.0,93,90,1.5
Bengkulu,1649150,-3.8,102.27,1579824044,23.65,92,66,1.66
High Rock,3572189,26.62,-78.28,1579824045,21.0,77,20,4.1
Minot,5690532,48.23,-101.3,1579824045,-5.0,85,90,2.1
Lubango,3347762,-14.92,13.49,1579824045,17.87,86,100,0.66
San Cristobal,3628473,7.77,-72.22,1579824045,28.0,69,40,1.5
Saldanha,3361934,-33.01,17.94,1579824045,23.0,53,19,1.5
Chokurdakh,2126123,70.63,147.92,1579824045,-35.99,93,15,3.75
Sobolevo,525426,54.43,31.9,1579824045,-1.35,86,100,4.94
Hwange,889942,-18.37,26.5,1579824046,21.42,75,100,1.33
Barrow,5880054,71.29,-156.79,1579824046,-24.0,69,90,5.1
Saskylakh,2017155,71.92,114.08,1579823989,-37.98,95,45,5.64
Karlovasi,256492,37.79,26.7,1579824046,7.0,47,0,7.7
Clyde River,5924351,70.47,-68.59,1579824046,-29.0,75,5,7.7
Airai,1651810,-8.93,125.41,1579824046,24.43,67,48,0.75
Savelugu,2295517,9.62,-0.83,1579824046,26.9,11,8,4.14
Mount Gambier,2156643,-37.83,140.77,1579823977,17.0,72,90,5.7
Dikson,1507390,73.51,80.55,1579823971,-23.48,96,100,5.56
Araxa,3471691,-19.59,-46.94,1579824039,21.0,94,40,3.6
Tilichiki,2120591,60.47,166.1,1579824047,-26.64,90,100,5.45
Tarauaca,3661980,-8.16,-70.77,1579824047,24.62,93,94,0.85
Thompson,6165406,55.74,-97.86,1579823801,-13.0,78,40,1.5
Amazar,2027806,53.86,120.88,1579824047,-31.24,81,15,1.16
Lorengau,2092164,-2.02,147.27,1579824047,28.71,69,53,3.37
George Town,1735106,5.41,100.34,1579824047,27.0,74,20,3.1
Phan Thiet,1571058,10.93,108.1,1579824047,20.6,66,74,1.75
Faanui,4034551,-16.48,-151.75,1579824048,27.97,74,15,3.41
Paratinga,3455029,-12.69,-43.18,1579824048,19.77,98,100,1.22
Arlit,2447513,18.74,7.39,1579824048,20.6,13,24,6.16
Esna,355449,25.29,32.55,1579824048,9.0,76,0,1.5
Baykit,1510689,61.67,96.37,1579824048,-22.49,98,99,0.89
Kota Belud,1736660,6.35,116.43,1579824048,24.0,73,75,3.1
Kadaya,2023324,50.93,119.29,1579824049,-31.17,86,0,1.57
Mancio Lima,3663516,-7.61,-72.9,1579824049,23.0,100,90,0.95
Umm Lajj,100926,25.02,37.27,1579824049,11.74,44,0,2.85
Cockburn Town,3576994,21.46,-71.14,1579824049,23.85,62,0,4.79
Thunder Bay,6166142,48.4,-89.32,1579824049,-6.0,73,90,2.6
Lochgilphead,2643825,56.04,-5.43,1579824049,9.44,93,90,6.2
Cabo San Lucas,3985710,22.89,-109.91,1579823855,22.78,60,20,6.2
Cilegon,1627549,-6.02,106.05,1579824049,27.0,83,40,1.5
Usinsk,863061,65.99,57.53,1579824050,-14.5,95,88,2.56
Lushun,1801722,38.8,121.27,1579824050,-5.0,62,85,2.0
Gao,2457161,16.64,1.64,1579824050,22.33,13,96,4.86
Waingapu,1622318,-9.66,120.26,1579823936,28.04,73,32,3.11
Ostrovnoy,556268,68.05,39.51,1579823978,-13.23,94,100,3.95
Tenenkou,2449938,14.46,-4.92,1579824050,26.77,12,98,4.98
Severo-Kuril'sk,2121385,50.68,156.12,1579824050,-8.32,82,82,3.71
Thinadhoo,1337610,0.53,72.93,1579823844,28.83,79,51,7.23
Riyadh,108410,24.69,46.72,1579823829,7.0,52,0,4.1
Kodinsk,1503037,58.69,99.18,1579824051,-17.29,98,98,2.14
Samarai,2132606,-10.62,150.67,1579824013,31.58,56,65,0.83
Hofn,2630299,64.25,-15.21,1579824014,1.8,59,69,18.65
Harindanga,1349090,22.04,88.32,1579824051,15.0,93,40,3.9
Kathu,1153035,7.92,98.33,1579824051,23.0,88,20,1.5
Imbituba,3461370,-28.24,-48.67,1579823951,22.0,94,75,4.6
Vila,7117100,42.03,-8.16,1579824051,11.67,62,75,2.1
Isangel,2136825,-19.55,169.27,1579823886,29.0,70,20,6.2
Hay River,5972762,60.82,-115.8,1579824016,-13.0,92,90,4.6
Calabozo,3647444,8.92,-67.43,1579824052,30.5,36,14,2.58
Yarim,69559,14.3,44.38,1579824052,10.89,87,2,0.97
Monrovia,2274895,6.3,-10.8,1579823976,25.0,94,40,4.01
Tazovsky,1489853,67.47,78.7,1579824052,-14.69,94,100,6.5
Alofi,4036284,-19.06,-169.92,1579824052,30.0,70,75,8.2
Khatanga,2022572,71.97,102.5,1579824052,-30.96,88,100,4.07
Aykhal,2027296,66.0,111.5,1579824052,-39.0,65,75,3.0
Belmonte,3470137,-15.86,-38.88,1579823971,25.0,83,75,4.1
Khanbari,1283217,27.37,87.2,1579823957,-2.52,57,7,1.08
Poum,2138555,-20.23,164.02,1579824052,26.12,78,39,9.1
Bhinmal,1275920,25.0,72.25,1579824053,9.9,46,6,1.86
Moa,3546791,20.66,-74.94,1579824053,15.18,95,17,0.8
Sur,286245,22.57,59.53,1579824053,18.56,78,1,3.32
Mahibadhoo,1337605,3.78,72.97,1579824053,28.34,81,51,8.85
Souillac,933995,-20.52,57.52,1579824053,26.67,94,75,5.67
Spineni,666360,44.7,24.57,1579824053,-6.0,92,36,2.1
Huntsville,4068590,34.73,-86.59,1579823918,8.0,93,90,5.7
Piacabucu,3454005,-10.41,-36.43,1579824054,26.65,84,98,4.57
Tabuk,1684803,17.42,121.44,1579824029,20.25,82,10,0.6
Ormara,1168700,25.21,64.64,1579824054,21.27,53,31,2.69
High Level,5975004,58.52,-117.14,1579824054,-5.0,100,90,4.6
Saint George,5546220,37.1,-113.58,1579824007,15.0,44,1,0.38
Yatou,1786855,37.15,122.38,1579824054,3.09,58,51,9.93
Virbhadra,1270351,30.07,78.28,1579824054,4.36,52,14,2.6
Kenai,5866063,60.55,-151.26,1579824054,-8.33,84,1,1.73
Ugoofaaru,1337619,5.67,73.0,1579824054,28.62,77,77,10.5
Lavrentiya,4031637,65.58,-171.0,1579824055,-25.9,85,30,0.48
Margate,2643044,51.38,1.39,1579824055,7.22,93,90,0.5
Port Blair,1259385,11.67,92.75,1579824055,26.56,76,38,5.8
Itarema,3393692,-2.92,-39.92,1579824013,25.43,90,95,1.96
Tura,1254046,25.52,90.22,1579823821,11.24,68,0,1.24
Tete,1026014,-16.16,33.59,1579824055,21.36,97,100,1.67
Taoudenni,2450173,22.68,-3.98,1579824055,20.34,22,100,3.51
Dourados,3464460,-22.22,-54.81,1579824055,21.7,86,98,4.53
Northam,2641434,51.03,-4.22,1579824056,6.11,100,90,1.5
Laas,3175096,46.62,10.7,1579824056,0.56,79,5,1.5
Banda Aceh,1215502,5.56,95.32,1579823967,22.68,90,34,2.68
Touros,3386213,-5.2,-35.46,1579824056,28.0,78,40,3.6
Bembereke,2395182,10.23,2.66,1579824056,22.56,12,0,3.77
Atasu,1526041,48.68,71.64,1579824056,-3.48,81,100,6.45
Padang,1633419,-0.95,100.35,1579824056,20.73,93,17,2.1
Longyearbyen,2729907,78.22,15.64,1579824056,-14.0,71,40,18.0
Simbahan,1695180,6.3,120.58,1579824056,27.43,81,45,6.04
Bosaso,64013,11.28,49.18,1579824057,24.67,80,93,3.41
Obo,236950,5.4,26.49,1579824057,17.95,21,100,2.94
San Policarpo,1688696,12.18,125.51,1579824057,26.8,86,66,7.6
Molde,3145580,62.74,7.16,1579824057,6.0,75,100,6.7
Artyom,587207,40.47,50.33,1579824057,7.0,87,90,6.2
Qaqortoq,3420846,60.72,-46.03,1579823958,-5.0,62,100,5.7
Krasnyy Kholm,541704,58.06,37.12,1579824057,-5.15,85,83,3.96
Harper,2276492,4.38,-7.72,1579824025,25.71,91,42,1.3
Harrismith,997751,-28.27,29.13,1579824057,12.62,98,100,1.99
Cherskiy,2126199,68.75,161.3,1579824058,-39.11,93,43,1.49
Coruripe,3465329,-10.13,-36.18,1579824058,27.43,80,96,6.69
Meulaboh,1214488,4.14,96.13,1579824058,27.37,82,24,4.23
Nemencine,596664,54.85,25.48,1579824058,0.56,89,90,7.2
Kudat,1736458,6.88,116.85,1579824058,27.0,83,75,3.6
Agadez,2448083,19.75,10.25,1579824058,15.17,18,1,2.02
Ribeira Grande,3372707,38.52,-28.7,1579823834,11.77,73,69,3.85
Inuvik,5983607,68.35,-133.72,1579824058,-24.0,83,90,1.0
Santa Maria,3450083,-29.68,-53.81,1579824058,23.0,78,5,2.6
Pevek,2122090,69.7,170.31,1579823990,-33.33,99,99,2.67
Brigantine,4500920,39.41,-74.36,1579824059,3.89,69,1,0.88
Gambo,239300,4.65,22.26,1579824059,19.15,27,68,2.18
Charters Towers,2171722,-20.1,146.27,1579824059,29.56,63,97,2.47
Ekhabi,2122614,53.51,142.97,1579824059,-20.96,93,87,1.53
Goderich,5962442,43.75,-81.72,1579824059,1.67,92,100,0.45
Kampong Cham,1831173,11.99,105.46,1579824021,21.12,89,100,1.51
Beringovskiy,2126710,63.05,179.32,1579823865,-16.44,96,100,4.28
Areosa,2742765,41.72,-8.86,1579824059,11.67,81,20,3.6
Quatre Cocos,1106643,-20.21,57.76,1579824060,26.67,94,75,10.51
Olafsvik,3414079,64.89,-23.71,1579823996,-0.64,64,100,18.24
Ambatondrazaka,1082639,-17.83,48.42,1579824060,16.68,96,100,1.01
Kirkenes,779303,69.73,30.05,1579824060,-7.0,92,90,10.8
Nyurba,2018735,63.28,118.33,1579823983,-43.82,97,43,1.11
Moranbah,6533368,-22.0,148.05,1579824060,29.41,60,100,2.71
Pringsewu,1630639,-5.36,104.97,1579824060,23.06,95,100,1.06
Dutlwe,933787,-23.98,23.9,1579824060,23.34,46,65,4.76
Beloha,1067565,-25.17,45.05,1579824060,20.1,85,6,4.72
Tchibanga,2396253,-2.85,11.03,1579824060,23.56,93,100,0.91
Kruisfontein,986717,-34.0,24.73,1579824061,16.84,88,2,4.24
Verkhnyaya Inta,1487332,65.98,60.31,1579824061,-14.23,96,100,1.32
Santo Antonio do Leverger,3449502,-15.87,-56.08,1579824061,28.0,78,40,3.6
Bay Roberts,5895424,47.6,-53.26,1579824061,-2.78,79,90,6.2
Bambous Virieux,1106677,-20.34,57.76,1579824061,26.67,94,75,6.62
Kuytun,2021093,54.34,101.5,1579824061,-19.33,92,92,2.7
Vigrestad,3131824,58.57,5.7,1579824061,8.0,93,75,6.2
Tomatlan,3981391,19.93,-105.25,1579824061,23.73,65,100,2.37
Patitiri,255689,39.15,23.87,1579824061,5.56,74,81,0.89
Roald,3141667,62.58,6.13,1579824062,6.0,70,95,10.3
Tuatapere,2180815,-46.13,167.68,1579823982,26.67,50,82,2.24
Resistencia,3429577,-27.46,-58.98,1579824062,27.0,74,32,2.1
Pocatello,5604045,42.87,-112.45,1579824062,2.22,80,90,1.5
Esso,2125711,55.93,158.7,1579824062,-21.38,90,0,1.93
Kismayo,55671,-0.36,42.55,1579824062,27.02,88,100,7.58
Mapiri,3910758,-15.25,-68.17,1579824063,20.37,79,100,0.94
Fafe,2739788,41.45,-8.17,1579824063,10.0,81,20,3.6
Katsuura,2112309,35.13,140.3,1579824063,11.11,81,75,2.6
Nauta,3692020,-4.51,-73.58,1579824063,25.56,90,69,1.95
Ciudad Lazaro Cardenas,4026082,17.96,-102.2,1579824011,26.34,68,97,2.97
Dzhubga,563601,44.32,38.7,1579824063,-2.02,84,22,1.29
Klaksvik,2618795,62.23,-6.59,1579823847,3.0,69,52,12.9
Orange Cove,5379533,36.62,-119.31,1579824063,18.33,72,1,1.4
Okhotsk,2122605,59.38,143.3,1579824064,-29.09,90,89,1.93
Constitucion,3893726,-35.33,-72.42,1579824064,14.84,93,99,2.23
Kevermes,719093,46.42,21.18,1579824064,-3.89,100,19,3.1
Yar-Sale,1486321,66.83,70.83,1579824064,-11.91,95,100,3.88
Motala,2690960,58.54,15.04,1579824064,8.0,81,96,8.2
Opuwo,3354077,-18.06,13.84,1579824046,23.0,38,99,3.76
Guasdualito,3804949,7.24,-70.73,1579824064,31.0,58,40,2.03
Pingdingshan,1798827,33.74,113.3,1579824065,5.0,72,100,4.33
Villa Carlos Paz,3832791,-31.42,-64.5,1579824065,27.78,61,0,5.1
Vanavara,2013727,60.34,102.28,1579824065,-23.41,99,100,2.09
Russell,4047434,32.35,-85.2,1579824065,11.0,81,90,2.6
Sutton Coldfield,2636486,52.57,-1.82,1579824036,6.67,100,90,1.5
Yangi Marg`ilon,1513491,40.43,71.72,1579824065,-4.0,92,90,2.1
Woodstock,6184365,43.13,-80.75,1579824021,1.11,69,90,3.6
Carballo,3126369,43.21,-8.69,1579824065,6.67,100,100,1.0
Bahar,142000,34.91,48.44,1579824065,-2.15,74,0,2.78
San Angelo,5530022,31.46,-100.44,1579824029,16.0,38,1,4.6
Kapoeta,372884,4.77,33.59,1579824066,24.16,20,83,2.1
Coffeyville,4269789,37.04,-95.62,1579824066,7.0,81,90,5.1
Grand Gaube,934479,-20.01,57.66,1579824066,26.67,94,75,8.68
Suhl,2824948,50.6,10.7,1579824066,-2.22,92,0,4.1
Muros,3115824,42.78,-9.06,1579824018,11.67,86,95,2.1
Cariati,2525352,39.49,16.96,1579824066,5.56,94,0,2.59
Nguruka,151567,-5.11,31.04,1579824067,18.81,93,100,0.78
Pochutla,3517970,15.74,-96.47,1579824067,27.0,83,90,4.32
Ginir,336454,7.13,40.7,1579824067,17.18,45,100,1.15
Bani,3512067,18.28,-70.33,1579824067,25.0,83,40,1.17
Talnakh,1490256,69.49,88.4,1579824067,-18.0,77,20,8.0
Yinchuan,1786657,38.47,106.27,1579824067,-5.36,70,95,1.02
Omboue,2396853,-1.57,9.26,1579824067,24.71,95,100,1.15
Matagami,6067747,49.75,-77.63,1579824067,-10.0,85,90,2.1
Iralaya,3608828,15.0,-83.23,1579824067,25.0,88,10,3.1
Ixtapa,4004293,20.7,-105.2,1579824068,26.0,69,20,3.1
Vila Franca do Campo,3372472,37.72,-25.43,1579824068,12.0,87,40,2.6
Dudinka,1507116,69.41,86.18,1579824068,-18.0,77,20,8.0
Livingston,2644204,55.9,-3.52,1579824068,8.0,87,75,7.7
San Quintin,3984997,30.48,-115.95,1579824068,16.42,72,0,3.57
Flin Flon,5954718,54.77,-101.86,1579824068,-10.0,92,20,1.0
Asau,686090,46.43,26.4,1579824068,-2.78,85,0,1.0
Peniche,2264923,39.36,-9.38,1579824068,9.44,100,40,2.1
Pangnirtung,6096551,66.15,-65.71,1579823890,-31.0,67,20,1.3
Bayir,304183,37.27,28.22,1579824068,7.0,28,0,6.7
Gari,1506676,59.43,62.35,1579824069,-14.13,93,100,3.26
Yueyang,1927639,29.33,113.09,1579824069,7.31,94,100,5.75
Port-Cartier,6111696,50.03,-66.87,1579824069,-1.0,80,90,4.1
Ayr,2656708,55.46,-4.63,1579824069,8.0,93,20,5.7
Alekseyevka,582956,50.63,38.69,1579824069,-7.02,86,48,4.48
Puerto Ayacucho,3629710,5.66,-67.62,1579824069,33.0,49,53,3.1
Ranir Bazar,1258447,23.83,91.37,1579824069,10.86,69,83,0.72
Ankara,323786,39.92,32.85,1579823988,-2.0,73,40,1.0
Vega de Alatorre,3514843,20.03,-96.63,1579824070,22.93,78,83,2.71
Bolgatanga,2302821,10.79,-0.85,1579824070,24.73,11,18,5.09
Ilhabela,3461425,-23.78,-45.36,1579824070,22.5,78,100,0.28
Vardo,777019,70.37,31.11,1579823977,-7.0,92,90,4.1
Plouzane,2986626,48.38,-4.62,1579824070,5.56,93,34,3.6
Sechura,3691954,-5.56,-80.82,1579824070,22.59,87,0,6.34
Buala,2109528,-8.14,159.59,1579824070,30.08,63,0,2.8
Mehamn,778707,71.04,27.85,1579824070,-6.0,85,75,8.2
Fortuna,5563839,40.6,-124.16,1579824046,15.56,82,90,2.1
Krasnoborsk,542423,61.56,45.93,1579824071,-8.51,94,97,3.54
Peace River,6100069,56.25,-117.29,1579823926,-2.0,74,90,3.6
Poshekhonye,506029,58.5,39.14,1579824071,-5.53,70,57,4.46
Lompoc,5367788,34.64,-120.46,1579824045,22.0,46,1,3.6
Esim,2303611,4.87,-2.24,1579824071,26.2,87,80,1.54
Guerrero Negro,4021858,27.98,-114.06,1579824071,20.67,48,0,5.05
Wasilla,5877641,61.58,-149.44,1579824071,-12.0,84,1,1.26
Yuci,1785974,37.68,112.73,1579823936,-1.0,54,98,5.0
Lewiston,4969398,44.1,-70.21,1579824072,1.0,73,1,0.43
Amarpur,1278895,25.03,86.9,1579824072,10.86,69,80,3.54
West Wendover,5710035,40.74,-114.07,1579824072,8.0,61,1,2.6
Walvis Bay,3359638,-22.96,14.51,1579823996,18.89,88,0,1.5
Fraga,3122157,41.52,0.35,1579824072,6.67,100,0,3.1
Kumul,1529484,42.8,93.45,1579824072,-12.61,69,74,0.19
Coolum Beach,2170581,-26.53,153.1,1579824072,31.11,80,38,1.99
Raipur,1258980,21.23,81.63,1579824073,15.68,49,78,1.83
Faya,110690,18.39,42.45,1579824073,11.0,87,40,5.1
Nampula,1033356,-15.12,39.27,1579824073,20.79,98,100,1.84
Qasigiannguit,3420768,68.82,-51.19,1579824073,-11.0,51,100,10.8
Narasannapeta,1261853,18.42,84.05,1579824073,18.75,79,16,1.74
Marfino,529368,55.7,37.38,1579824073,-3.89,79,75,5.0
Morant Bay,3489440,17.88,-76.41,1579824073,25.0,73,40,2.1
Deskati,263166,39.92,21.8,1579824073,1.0,58,7,0.94
Itacare,3460940,-14.28,-39.0,1579824073,26.0,94,90,3.55
Aviles,3129135,43.55,-5.92,1579824063,8.33,100,100,1.5
North Bend,5742974,43.41,-124.22,1579824074,15.0,93,90,4.6
Sorong,1626542,-0.88,131.25,1579824074,28.6,69,0,1.28
Henties Bay,3356832,-22.12,14.28,1579824074,18.89,91,0,2.05
Feicheng,1811440,35.26,117.97,1579824074,0.73,73,100,2.35
Dingle,1714733,11.0,122.67,1579824074,25.11,88,28,4.95
Lahaina,5849996,20.88,-156.68,1579824074,27.0,50,20,2.6
Christiana,1013550,-27.91,25.16,1579824074,20.12,59,26,5.4
Totma,481960,59.97,42.76,1579824074,-9.92,94,96,3.41
Broken Hill,2173911,-31.95,141.43,1579824075,19.0,37,0,5.7
Tres Arroyos,3833859,-38.37,-60.28,1579824075,30.27,22,0,4.44
Berdigestyakh,2026861,62.1,126.7,1579824075,-41.17,99,5,0.97
Lagoa,3372964,39.05,-27.98,1579823895,13.87,66,74,3.68
Garden City,4993659,42.33,-83.33,1579823961,2.22,69,90,2.58
Saint Simons,4220862,31.14,-81.39,1579823986,13.0,87,90,3.6
Shiraoi,2128072,42.55,141.35,1579824075,-1.0,100,75,9.3
Cabedelo,3404558,-6.98,-34.83,1579824076,27.0,83,20,3.1
Lucea,3489657,18.45,-78.17,1579824076,23.0,60,20,2.1
Finneytown,4511642,39.2,-84.52,1579824076,7.0,56,90,2.37
Clemencia,3686196,10.57,-75.33,1579824076,29.0,74,40,7.2
Palampur,1260784,32.12,76.53,1579824076,6.31,24,0,1.59
Sezimovo Usti,3066154,49.39,14.68,1579824076,-1.67,90,0,2.18
Tiruchchendur,1254390,8.48,78.12,1579824076,23.0,88,20,2.1
Codrington,2171099,-38.27,141.97,1579824077,16.68,73,88,8.29
Kokstad,988356,-30.55,29.42,1579824077,11.5,98,91,1.88
Laguna,5364271,38.42,-121.42,1579823981,14.44,82,40,1.31
Lere,2332079,10.39,8.57,1579824077,16.62,25,38,3.68
Pekan,1734971,3.48,103.4,1579824077,23.0,88,20,1.0
Libreville,2399697,0.39,9.45,1579824052,29.0,83,20,2.6
Tartagal,3834601,-22.52,-63.8,1579824077,28.0,61,40,3.1
Honningsvag,779554,70.98,25.97,1579824077,-6.0,85,75,8.2
Dunedin,2191562,-45.87,170.5,1579824078,15.74,86,84,4.15
Chui,3443061,-33.7,-53.46,1579823812,20.8,82,0,4.73
Saint-Pierre,935214,-21.34,55.48,1579824078,26.0,100,100,1.5
Celestun,3531368,20.87,-90.4,1579823929,22.62,75,20,6.17
Sandnessjoen,3140301,66.02,12.63,1579824078,5.0,56,20,7.2
Oksfjord,778362,70.24,22.35,1579824078,-2.0,86,75,7.2
Igrim,1505965,63.19,64.42,1579824078,-12.46,95,100,3.94
Vila Velha,3445026,-20.33,-40.29,1579824078,25.0,88,90,4.1
Shelburne,6145890,44.08,-80.2,1579824079,1.0,80,90,2.1
Ust'-Kulom,478050,61.69,53.69,1579824079,-8.63,93,100,3.78
Marrakesh,2542997,31.63,-8.01,1579823865,9.0,87,20,3.6
Panguna,2088659,-6.32,155.48,1579824079,28.34,66,52,2.43
Iqaluit,5983720,63.75,-68.51,1579824079,-32.78,60,5,11.3
Ulaangom,1515029,49.98,92.07,1579824079,-20.32,95,100,1.52
Shieli,1524801,44.17,66.75,1579824080,1.83,80,73,7.98
City of San Pedro,1688781,14.35,121.02,1579824080,26.11,74,75,1.0
Weston,4178003,26.1,-80.4,1579823991,22.22,93,90,3.1
Korla,1529376,41.76,86.15,1579824080,-10.48,72,0,1.81
Tagcatong,1684462,9.0,125.26,1579824080,25.7,83,17,2.55
Naze,1855540,28.37,129.48,1579824080,21.0,94,75,4.1
Necochea,3430443,-38.55,-58.74,1579823976,27.78,68,0,1.79
Finnsnes,3157549,69.23,17.98,1579824080,1.0,100,100,13.9
Palencia,3114530,42.42,-4.5,1579824080,5.0,90,100,0.45
Lakhtar,1265225,22.85,71.78,1579824081,13.92,45,34,4.11
Husavik,2629833,66.04,-17.34,1579824081,-1.0,58,90,23.1
Mount Isa,2065594,-20.73,139.5,1579824008,29.0,70,90,3.6
Quarai,3452179,-30.39,-56.45,1579824081,24.14,50,0,4.41
Dalvik,2632287,65.97,-18.53,1579824081,-1.0,58,90,23.1
Vestmannaeyjar,3412093,63.44,-20.27,1579824081,1.28,68,100,17.48
Katobu,1640972,-4.94,122.53,1579824081,27.43,79,89,1.21
Yanam,1252795,16.73,82.22,1579824081,17.92,91,2,1.2
Nanga Eboko,2225457,4.68,12.37,1579824081,17.75,27,59,1.33
Arrondissement du Havre,3013633,49.58,0.33,1579824081,2.0,100,90,2.6
Springbok,3361142,-29.66,17.89,1579824082,14.7,83,0,3.6
Auki,2109701,-8.77,160.7,1579824082,29.0,69,7,3.57
Srednekolymsk,2121025,67.45,153.68,1579824082,-36.58,98,99,2.48
Lokosovo,1500399,61.13,74.82,1579824082,-5.21,93,99,5.04
Villarrobledo,2509491,39.27,-2.6,1579824082,6.11,91,36,3.13
Hazorasp,1513957,41.32,61.07,1579824004,2.0,75,90,2.1
Bilibino,2126682,68.05,166.44,1579824082,-39.22,100,1,0.69
Kudahuvadhoo,1337607,2.67,72.89,1579824082,28.54,80,93,8.88
Ciudad del Carmen,3530599,18.63,-91.83,1579824058,25.0,73,5,4.6
Namatanai,2090021,-3.67,152.43,1579824083,28.79,75,33,2.47
Chicama,3698359,-7.84,-79.15,1579824083,25.0,69,75,2.6
Mufulira,905395,-12.55,28.24,1579824083,16.93,98,86,0.83
Prieska,964090,-29.66,22.75,1579824083,23.62,17,0,4.05
Hervey Bay,2146219,-25.3,152.85,1579824083,29.44,83,75,1.5
Anloga,2304548,5.79,0.9,1579824083,28.0,88,20,3.1
Say,2439812,13.1,2.37,1579824084,25.0,9,17,5.1
Ambon,1651531,-3.7,128.18,1579824084,30.0,79,20,1.5
Richards Bay,962367,-28.78,32.04,1579823961,24.18,76,83,2.52
Labuan,1733782,5.28,115.24,1579824021,27.0,74,75,1.5
Regina,6119109,50.45,-104.62,1579823862,-2.0,100,90,8.2
Akaltara,1279144,22.02,82.43,1579824084,12.08,53,100,2.39
Ballina,2177069,-28.87,153.57,1579824084,31.67,70,48,5.7
Taltal,3870243,-25.4,-70.48,1579824084,20.37,74,6,0.77
Coyhaique,3894426,-45.58,-72.07,1579824084,15.0,44,40,3.6
Jiwani,1175712,25.05,61.74,1579824084,21.67,61,10,4.78
Eilat,295277,29.56,34.95,1579823941,12.0,62,0,1.1
Sistranda,3139597,63.73,8.83,1579823891,4.0,86,75,7.2
Beauceville,6295855,46.22,-70.78,1579824085,-1.11,75,69,0.89
Vestmanna,2610343,62.16,-7.17,1579824016,3.0,71,86,12.9
Fuyang,1810845,32.9,115.82,1579824085,4.99,80,98,4.17
Suez,359796,29.97,32.53,1579824085,10.62,62,6,3.15
Santa Rosa,1687894,14.31,121.11,1579824006,26.0,74,75,1.0
Yerazgavors,616053,40.7,43.75,1579824085,-6.0,92,90,1.0
Rome,5134295,43.21,-75.46,1579824086,-0.56,68,1,2.39
Barcelos,2742416,41.54,-8.62,1579824086,10.0,81,20,3.6
Lata,2738381,40.16,-8.33,1579824086,10.0,93,40,3.6
Wukari,2318921,7.85,9.78,1579824086,24.05,12,23,4.04
Mossamedes,3347019,-15.2,12.15,1579824086,23.25,78,84,4.19
Nicoya,3622716,10.15,-85.45,1579823969,30.0,51,20,4.1
Tadpatri,1255254,14.92,78.02,1579824086,19.3,76,5,1.88
Leshukonskoye,535839,64.9,45.76,1579824086,-17.0,97,55,1.7
Panguipulli,3877348,-39.63,-72.33,1579824086,23.0,53,0,3.1
Karratha,6620339,-20.74,116.85,1579824087,28.58,75,11,4.23
Severo-Yeniseyskiy,1492566,60.37,93.04,1579823998,-14.79,92,100,2.15
Sokolskoye,491145,57.14,43.16,1579824087,-7.75,89,82,5.19
Rio Gallegos,3838859,-51.62,-69.22,1579824087,13.0,43,75,12.3
Grand-Lahou,2288105,5.14,-5.02,1579824087,27.68,88,62,5.13
Bairiki Village,7601762,1.33,172.98,1579824036,28.0,83,75,2.6
Fes,2548885,34.04,-5.0,1579824087,10.0,81,75,3.1
Rusape,882100,-18.53,32.13,1579824087,14.95,93,100,1.34
Rocha,3440777,-34.48,-54.33,1579824008,18.99,85,0,5.04
Fairbanks,5861897,64.84,-147.72,1579824088,-22.22,76,90,0.79
Saldus,455890,56.66,22.49,1579824047,5.95,88,100,5.87
Broome,5110365,42.25,-75.83,1579824088,1.11,68,1,1.41
Callaway,4149635,30.15,-85.57,1579824088,17.0,77,90,5.1
Denpasar,1645528,-8.65,115.22,1579823997,28.0,83,20,1.5
Povenets,505820,62.85,34.83,1579824088,-6.2,93,100,4.56
Lianzhou,1803841,24.78,112.38,1579824088,10.93,85,99,2.93
Hammerfest,779683,70.66,23.68,1579824088,-2.0,86,75,7.2
Pasighat,1260206,28.07,95.33,1579824088,12.66,72,100,0.35
Minab,123941,27.15,57.08,1579824031,18.0,93,75,2.1
Cairns,2172797,-16.92,145.77,1579824089,32.78,70,75,0.5
Certegui,3686883,5.37,-76.6,1579824089,31.0,62,20,1.27
Tautira,4033557,-17.73,-149.15,1579823963,32.0,59,40,6.2
Port Macquarie,2152659,-31.43,152.92,1579823967,31.11,74,96,5.37
San Onofre,3669218,9.74,-75.53,1579824089,25.67,81,61,4.26
Deer Lake,5937252,49.17,-57.43,1579824089,-1.0,80,90,5.1
Ailigandi,3714956,9.23,-78.02,1579824089,22.68,95,70,1.57
Labuhan,8079926,-6.88,112.21,1579824089,25.98,86,2,1.54
Yambio,363656,4.57,28.4,1579824090,17.31,32,94,1.77
Boa Vista,3664980,2.82,-60.67,1579823926,31.0,48,49,3.1
Nava,3995050,28.42,-100.77,1579824090,22.0,26,5,4.1
Chennai,1264527,13.09,80.28,1579824036,23.89,94,20,1.0
Bereda,3105522,43.27,-7.54,1579824090,8.33,100,100,1.0
Burnie,2173125,-41.07,145.92,1579823803,16.11,70,21,5.36
Tabas,113659,33.6,56.92,1579824090,6.0,81,0,1.0
Iquique,3887127,-20.22,-70.14,1579824090,24.0,73,64,2.1
Siddipet,1256377,18.1,78.85,1579824090,18.6,58,22,1.23
Kahului,5847411,20.89,-156.47,1579824082,27.0,50,20,2.6
Buluang,1722803,13.31,123.34,1579824091,24.61,87,66,2.98
Talcahuano,3870282,-36.72,-73.12,1579824091,17.0,82,75,3.6
Tual,1623197,-5.67,132.75,1579824091,28.58,78,10,6.86
Sioux Lookout,6148373,50.1,-91.92,1579823966,-9.0,85,40,1.0
Tooele,5783695,40.53,-112.3,1579823820,11.0,75,90,1.37
Kiama,2161515,-34.68,150.87,1579824091,26.11,64,75,6.2
Champerico,3598787,14.3,-91.92,1579824000,28.0,69,40,4.1
Ericeira,2268563,38.96,-9.42,1579824091,9.44,100,40,2.1
Vryheid,942470,-27.77,30.79,1579824091,15.27,97,89,1.27
Alice Springs,2077895,-23.7,133.88,1579824036,28.0,28,28,8.2
Bara,2347758,10.37,10.73,1579824092,18.43,17,87,4.47
Kutum,371745,14.2,24.67,1579824092,4.89,35,0,2.5
Ust'-Karsk,2013942,52.7,118.81,1579824092,-27.03,86,0,1.85
Tiarei,4033356,-17.53,-149.33,1579824092,32.0,59,40,6.2
Sawtell,2150163,-30.38,153.1,1579824092,31.67,70,100,6.2
Elista,563514,46.31,44.26,1579824092,-3.0,100,6,8.0
Kachhwa,1268722,25.22,82.72,1579824093,10.0,81,90,3.1
Longuenesse,2997670,50.73,2.24,1579824093,4.0,86,0,1.0
Stepnyak,1518768,52.83,70.78,1579824093,-0.8,87,100,11.03
Ankazoabo,1072879,-22.28,44.52,1579824093,19.59,87,1,1.71
Falesti,618344,47.57,27.71,1579824093,-2.0,74,0,1.5
Nouadhibou,2377457,20.93,-17.03,1579824093,17.0,67,22,5.7
Shakawe,933077,-18.37,21.85,1579824093,21.18,84,100,0.76
Aitape,2101169,-3.14,142.35,1579824093,27.62,73,83,1.14
Batemans Bay,2176639,-35.72,150.18,1579824024,23.89,64,50,1.79
Krabi,1152633,8.07,98.91,1579824094,23.89,100,20,1.5
Yeniseysk,1485997,58.45,92.17,1579824094,-4.75,92,100,4.03
Nanchong,1800146,30.8,106.08,1579824094,7.85,78,100,4.74
Nha Trang,1572151,12.25,109.18,1579823988,21.0,94,20,2.1
Saint Anthony,5044290,45.02,-93.22,1579824094,1.11,98,90,2.6
Inhambane,1045114,-23.86,35.38,1579824094,25.5,65,46,5.29
Launceston,2160517,-41.45,147.17,1579824094,18.89,59,75,8.7
Monster,2750630,52.03,4.17,1579824095,5.0,86,90,2.1
Kitimat,5993072,54.05,-128.65,1579824095,1.0,100,90,2.1
Seymchan,2121373,62.88,152.43,1579824095,-31.34,97,100,0.29
Rock Sound,3571592,24.9,-76.2,1579824095,22.77,76,20,9.97
Mangrol,1263752,21.12,70.12,1579824095,21.04,52,24,5.71
