city_name,city_id,lat,lon,unix_dt,temp,humidity,cloudiness,windspeed
Albany,5106841,42.6,-73.97,1579578485,-11.6,72,1,3.6
Homer,5864145,59.64,-151.55,1579578657,-8.38,92,1,1.5
Boende,218680,-0.22,20.87,1579578658,22.93,73,99,0.21
Punta Arenas,3874787,-53.15,-70.92,1579578479,12.89,76,75,6.7
Bluff,2206939,-46.6,168.33,1579578658,16.8,73,100,2.5
Dikson,1507390,73.51,80.55,1579578482,-29.24,89,92,10.21
Oruzgan,1131461,32.83,66.0,1579578658,-6.65,97,100,0.97
Beira,1052373,-19.84,34.84,1579578397,24.0,78,90,7.2
Broken Hill,2173911,-31.95,141.43,1579578659,27.0,32,0,4.6
Bemidji,5017822,47.47,-94.88,1579578659,-16.74,84,1,2.6
Manaure,3675504,11.78,-72.44,1579578659,25.82,85,45,7.81
Jamestown,5122534,42.1,-79.24,1579578644,-8.88,85,90,2.6
Santa Comba,3109966,43.03,-8.81,1579578659,7.0,76,0,3.6
Norman Wells,6089245,65.28,-126.83,1579578659,-28.0,75,5,1.5
New Norfolk,2155415,-42.78,147.06,1579578660,19.3,63,20,7.7
Mayumba,2399001,-3.43,10.66,1579578660,28.2,79,86,6.08
Jumla,1283285,29.27,82.18,1579578660,-2.67,93,100,1.01
Margate,2643044,51.38,1.39,1579578660,-0.12,70,0,2.6
Long Beach,5367929,33.77,-118.19,1579578660,13.64,82,90,1.76
Mataura,6201424,-46.19,168.86,1579578482,23.03,64,100,1.55
Pisco,3932145,-13.7,-76.22,1579578444,21.58,88,100,5.7
Brigantine,4500920,39.41,-74.36,1579578661,-4.22,38,1,5.1
Maxixe,1039536,-23.86,35.35,1579578661,24.47,66,99,8.99
Yumen,1528998,40.28,97.2,1579578661,-8.6,79,100,7.35
Tuktoyaktuk,6170031,69.45,-133.04,1579578661,-31.0,74,5,3.1
Yellowknife,6185377,62.46,-114.35,1579578661,-21.84,76,75,3.6
Jalu,86049,29.03,21.55,1579578662,10.91,73,0,4.72
Lakhtar,1265225,22.85,71.78,1579578662,16.08,41,0,2.4
Pastavy,623760,55.12,26.83,1579578662,4.16,86,100,7.8
Cabo San Lucas,3985710,22.89,-109.91,1579578568,18.55,72,5,2.6
Harper,2276492,4.38,-7.72,1579578662,24.08,93,62,0.51
Alcaniz,3130606,41.05,-0.13,1579578662,2.22,86,100,8.05
Ushuaia,3833367,-54.8,-68.3,1579578662,10.0,71,40,4.1
Hermanus,3366880,-34.42,19.23,1579578663,19.15,87,29,3.13
Cherskiy,2126199,68.75,161.3,1579578663,-31.56,98,100,2.45
Oeiras,3393764,-7.03,-42.13,1579578663,23.07,93,96,1.31
San Cristobal,3628473,7.77,-72.22,1579578570,27.0,74,40,1.0
Bourail,2141714,-21.57,165.48,1579578663,27.81,52,79,2.89
Abonnema,2324433,4.71,6.79,1579578663,24.0,83,32,1.77
Port Elizabeth,964420,-33.92,25.57,1579578602,20.0,77,75,4.1
Japura,1642773,-0.32,102.35,1579578664,29.12,73,22,1.69
Yatou,1786855,37.15,122.38,1579578664,3.65,47,58,3.63
Butaritari,2110227,3.07,172.79,1579578522,29.42,65,100,1.49
Stow,5173171,41.16,-81.44,1579578664,-6.81,92,90,1.5
Rio Grande,3451138,-32.03,-52.1,1579578664,23.47,88,90,6.86
Hastings,2647356,50.86,0.57,1579578664,-0.72,72,0,2.6
Bosaso,64013,11.28,49.18,1579578664,23.61,60,0,0.88
Geraldton,2070998,-28.77,114.6,1579578665,25.0,53,20,10.3
Vaini,4032243,-21.2,-175.2,1579578507,29.0,66,20,6.2
Port Keats,2063039,-14.25,129.55,1579578665,26.9,87,100,8.29
Hilo,5855927,19.73,-155.09,1579578564,21.31,69,40,4.1
Kapaa,5848280,22.08,-159.32,1579578665,24.0,65,20,3.6
Hongjiang,1808106,27.11,110.0,1579578665,7.8,77,100,0.54
Dawson Creek,5935804,55.77,-120.24,1579578666,1.06,64,1,8.2
Barrow,5880054,71.29,-156.79,1579578484,-19.0,77,90,5.7
Sao Sebastiao,3448257,-23.76,-45.41,1579578666,23.82,73,100,4.16
Tefe,3661944,-3.35,-64.71,1579578666,24.14,95,100,0.52
Uige,2236568,-7.61,15.06,1579578666,19.83,99,100,0.31
Carmo do Paranaiba,3466902,-19.0,-46.32,1579578666,20.0,100,77,0.27
Caceres,2520610,39.52,-6.37,1579578667,3.89,71,73,0.45
Zhaozhou,2033147,45.68,125.32,1579578667,-8.6,80,100,6.3
Srednekolymsk,2121025,67.45,153.68,1579578667,-30.56,96,100,5.13
Port Alfred,964432,-33.59,26.89,1579578668,17.22,90,100,0.89
Umm Kaddadah,364933,13.6,26.69,1579578668,12.16,29,0,7.82
Torbay,6167817,47.67,-52.73,1579578512,-5.64,92,90,2.6
Esperance,2071860,-33.87,121.9,1579578499,23.0,53,40,11.8
Puerto Ayora,3652764,-0.74,-90.35,1579578503,25.0,57,43,2.24
East London,1006984,-33.02,27.91,1579578669,17.0,88,100,2.6
Qaanaaq,3831208,77.48,-69.36,1579578669,-25.34,65,100,3.81
Hervey Bay,2146219,-25.3,152.85,1579578669,32.11,62,0,7.2
Rikitea,4030556,-23.12,-134.97,1579578669,25.72,78,100,4.51
Saint-Philippe,935215,-21.36,55.77,1579578446,23.13,83,100,2.6
Fort Nelson,5955902,58.81,-122.7,1579578669,-19.0,84,90,1.0
Hirara,1862505,24.8,125.28,1579578669,21.49,60,40,4.1
Karlskoga,2701715,59.33,14.52,1579578670,7.48,81,35,9.3
Bara,2347758,10.37,10.73,1579578670,16.8,44,29,2.84
Mazagao,3395042,-0.12,-51.29,1579578670,25.0,100,75,3.1
Cajimos,1720820,12.59,122.28,1579578670,25.3,69,48,7.63
Mahebourg,934322,-20.41,57.7,1579578483,26.53,88,75,2.56
Chui,3443061,-33.7,-53.46,1579578671,21.5,96,44,2.55
Kodiak,5866583,57.79,-152.41,1579578502,-7.0,73,1,3.1
Hamilton,4513583,39.18,-84.53,1579578629,-4.87,79,90,1.74
Teguldet,1489822,57.31,88.17,1579578671,-20.51,92,100,5.5
Lebu,3883457,-37.62,-73.65,1579578671,12.07,92,0,2.45
Korla,1529376,41.76,86.15,1579578671,-5.56,90,0,0.89
Busselton,2075265,-33.65,115.33,1579578468,23.43,30,67,8.59
Hong Kong,1819729,22.29,114.16,1579578628,20.16,64,20,7.7
Airai,1651810,-8.93,125.41,1579578672,28.56,50,98,1.91
Arraial do Cabo,3471451,-22.97,-42.03,1579578562,23.6,85,40,1.91
Nikolskoye,546105,59.7,30.79,1579578494,5.19,86,75,6.0
Mount Isa,2065594,-20.73,139.5,1579578491,36.0,23,100,3.6
Nanortalik,3421765,60.14,-45.24,1579578672,-0.56,66,100,11.97
Bredasdorp,1015776,-34.53,20.04,1579578672,18.96,88,100,6.2
Atuona,4020109,-9.8,-139.03,1579578673,27.25,76,67,5.91
Grand Forks,5059429,47.93,-97.03,1579578384,-18.65,77,1,8.7
Huautla,3526989,21.03,-98.28,1579578673,10.97,94,100,0.15
Westport,4845585,41.14,-73.36,1579578619,-6.4,34,1,2.6
Luziania,3458329,-16.25,-47.95,1579578673,22.04,83,40,1.0
Andros Town,3572906,24.7,-77.77,1579578674,22.63,73,75,3.6
Husavik,2629833,66.04,-17.34,1579578674,2.0,51,75,22.6
Tiarei,4033356,-17.53,-149.33,1579578674,28.95,74,20,5.1
Quatre Cocos,1106643,-20.21,57.76,1579578512,26.6,88,75,5.64
Khovd,1516048,48.01,91.64,1579578674,-15.01,54,7,2.27
Bethel,5282297,41.37,-73.41,1579578674,-7.69,34,1,1.5
Ajdabiya,89113,30.76,20.23,1579578675,13.09,76,0,9.02
Tuatapere,2180815,-46.13,167.68,1579578517,16.39,74,100,1.61
Ishigaki,1861416,24.34,124.16,1579578675,22.0,60,20,5.7
Nabire,1634614,-3.37,135.48,1579578675,32.15,51,67,2.19
Mossamedes,3347019,-15.2,12.15,1579578495,24.16,81,85,5.24
Lubumbashi,922704,-11.66,27.48,1579578675,17.56,97,100,2.25
Sakakah,102527,29.97,40.21,1579578676,7.0,75,0,2.6
Hay River,5972762,60.82,-115.8,1579578676,-14.0,84,90,3.6
Tampakan,1683430,6.44,124.93,1579578676,31.0,45,20,5.1
Honiara,2108502,-9.43,159.95,1579578676,32.0,59,40,3.6
Tateyama,1850523,34.98,139.87,1579578516,11.5,37,40,4.6
Avarua,4035715,-21.21,-159.78,1579578676,28.0,88,99,4.6
Guerrero Negro,4021858,27.98,-114.06,1579578504,17.21,63,77,4.36
Concordia,3435261,-31.39,-58.02,1579578677,23.33,94,100,1.79
Severo-Kuril'sk,2121385,50.68,156.12,1579578490,-6.28,82,100,2.38
Thompson,6165406,55.74,-97.86,1579578514,-14.0,84,90,2.6
Aklavik,5882953,68.22,-135.01,1579578511,-27.0,75,20,1.5
Tasiilaq,3424607,65.61,-37.64,1579578678,-10.0,43,86,2.6
Iringa,159071,-7.77,35.7,1579578678,16.39,95,100,2.39
San Patricio,3985168,19.22,-104.7,1579578486,27.18,71,0,1.85
Faya,110690,18.39,42.45,1579578678,11.0,87,20,3.6
Requena,2511930,39.49,-1.1,1579578678,8.65,81,75,7.7
Bonthe,2409914,7.53,-12.51,1579578678,24.79,88,28,0.87
Berbera,64435,10.44,45.01,1579578679,23.58,63,0,0.95
Los Llanos de Aridane,2514651,28.66,-17.92,1579578679,14.5,77,90,4.6
Ostrovnoy,556268,68.05,39.51,1579578679,-2.39,96,100,5.5
Hobart,2163355,-42.88,147.33,1579578451,19.3,63,20,7.7
Najran,103630,17.49,44.13,1579578449,11.0,40,0,0.93
Wad Medani,364103,14.4,33.52,1579578679,14.01,21,0,5.59
Luba,2309528,3.46,8.55,1579578680,25.0,94,20,1.5
Mehamn,778707,71.04,27.85,1579578680,0.72,65,18,12.49
Katubao,1709108,5.89,124.83,1579578680,31.0,45,20,5.1
Kangaatsiaq,3422683,68.31,-53.46,1579578680,-8.45,68,100,7.03
Tutoia,3385899,-2.76,-42.27,1579578680,24.04,95,94,1.69
Wanaka,2184707,-44.7,169.15,1579578680,23.09,31,100,0.66
Beckley,4798308,37.78,-81.19,1579578680,-8.25,78,90,4.6
Vallenar,3868633,-28.57,-70.76,1579578681,15.55,87,21,0.35
Cape Town,3369157,-33.93,18.42,1579578553,18.89,82,0,1.0
Unai,3445764,-16.36,-46.91,1579578681,21.71,88,64,2.36
Pangnirtung,6096551,66.15,-65.71,1579578681,-27.93,77,3,2.55
Roseburg,5749352,43.22,-123.34,1579578681,7.17,76,90,1.81
Lompoc,5367788,34.64,-120.46,1579578681,11.3,87,90,1.5
Ejea de los Caballeros,3123688,42.13,-1.14,1579578681,2.49,64,99,4.6
Dolores,3435038,-36.31,-57.68,1579578682,20.8,87,1,3.29
Great Yarmouth,2647984,52.61,1.73,1579578682,-0.85,90,0,3.1
Amapa,3407762,1.0,-52.0,1579578682,22.22,98,95,1.12
Sao Filipe,3374210,14.9,-24.5,1579578682,20.42,78,42,0.95
Carnarvon,2074865,-24.87,113.63,1579578480,27.0,61,0,11.3
Kruisfontein,986717,-34.0,24.73,1579578683,17.71,94,100,6.06
Mandalgovi,2030065,45.76,106.27,1579578683,-12.91,76,1,0.85
Jennings,4392445,38.72,-90.26,1579578498,-7.21,85,75,2.6
Dombarovskiy,565407,50.76,59.54,1579578683,-5.68,96,100,5.05
Hualmay,3939761,-11.1,-77.61,1579578683,21.33,81,100,1.29
Bengkulu,1649150,-3.8,102.27,1579578683,31.33,58,30,0.13
Dukat,2125906,62.55,155.55,1579578684,-30.12,95,100,2.11
Ardakan,143073,32.31,54.02,1579578684,0.0,76,0,2.06
Kushmurun,1519924,52.45,64.63,1579578684,-11.21,95,88,2.33
Poronaysk,2121909,49.22,143.12,1579578684,-12.44,80,0,0.94
Bantry,2966356,51.68,-9.45,1579578684,6.0,75,90,2.1
Solnechnyy,2016307,50.72,136.63,1579578684,-19.0,97,0,2.26
Mount Gambier,2156643,-37.83,140.77,1579578685,23.0,35,40,2.6
Anaco,3486270,9.44,-64.47,1579578685,24.43,74,82,3.39
Linxia,1803331,35.6,103.21,1579578685,-3.83,68,44,0.91
Pangody,1495626,65.85,74.49,1579578685,-23.53,97,100,4.7
Opuwo,3354077,-18.06,13.84,1579578517,19.59,64,99,1.54
George Town,1735106,5.41,100.34,1579578662,29.5,79,20,2.6
Touros,3386213,-5.2,-35.46,1579578685,26.0,83,20,3.1
Susanville,5572400,40.42,-120.65,1579578686,1.65,80,90,1.5
Nemuro,2128975,43.32,145.57,1579578686,-3.0,68,75,4.1
Summerville,4597919,33.02,-80.18,1579578686,0.87,47,75,3.06
Cidreira,3466165,-30.18,-50.21,1579578686,24.49,84,97,13.12
San Isidro,3929631,-12.12,-77.05,1579578687,22.0,88,75,6.2
Buin,3897774,-33.73,-70.75,1579578687,23.0,49,0,3.6
Willowmore,939676,-33.29,23.49,1579578687,14.8,84,100,2.68
Longyearbyen,2729907,78.22,15.64,1579578687,-8.0,72,75,9.8
Brae,2654970,60.4,-1.35,1579578687,7.44,70,95,7.7
Chokurdakh,2126123,70.63,147.92,1579578688,-27.35,98,100,3.59
Ustyuzhna,477795,58.84,36.43,1579578689,3.22,94,100,4.89
Bathsheba,3374083,13.22,-59.52,1579578689,26.0,78,40,6.2
Nieuwpoort,2790153,51.12,2.77,1579578689,0.7,91,0,2.1
Baykit,1510689,61.67,96.37,1579578689,-28.49,98,100,0.76
Shingu,1847947,33.73,135.98,1579578690,11.0,48,40,8.7
Padang,1633419,-0.95,100.35,1579578509,26.54,69,90,1.71
Souillac,933995,-20.52,57.52,1579578690,26.54,88,75,2.56
Boshnyakovo,2126493,49.63,142.17,1579578690,-14.58,91,100,1.93
Nizhniy Odes,520552,63.64,54.86,1579578690,-15.64,95,100,4.09
Drumnadrochit,2650918,57.33,-4.48,1579578690,10.29,87,75,4.1
Narsaq,3421719,60.92,-46.05,1579578690,1.0,37,100,10.3
Te Anau,2181625,-45.42,167.72,1579578493,18.39,70,100,0.75
Guayabetal,3681303,4.21,-73.82,1579578691,12.0,87,40,1.0
Ancud,3899695,-41.87,-73.82,1579578691,16.0,63,0,3.6
Shubarshi,608270,48.59,57.19,1579578510,-6.28,94,100,5.35
Alamosa,5411479,37.47,-105.87,1579578691,-5.2,73,90,2.1
Safi,2537881,32.3,-9.24,1579578691,7.46,85,0,1.65
Seoul,1835848,37.57,126.98,1579578661,1.43,34,1,1.5
Ibra,287832,22.69,58.53,1579578692,15.64,84,0,1.26
Villa Altagracia,3491952,18.67,-70.17,1579578692,23.17,100,20,1.9
Juruti,3396979,-2.15,-56.09,1579578692,25.36,89,98,1.41
Salalah,286621,17.02,54.09,1579578692,20.0,56,40,3.6
Murud,1262403,18.33,72.97,1579578692,22.28,67,0,0.65
Castro,3466704,-24.79,-50.01,1579578658,17.01,98,46,2.95
Tessalit,2449893,20.2,1.01,1579578693,17.7,22,31,5.27
Dingle,1714733,11.0,122.67,1579578693,25.41,73,32,6.64
San-Pedro,2282006,4.75,-6.64,1579578693,27.28,80,46,3.5
Muros,3115824,42.78,-9.06,1579578693,6.77,76,0,3.6
Ust'-Izhora,478080,59.81,30.58,1579578693,5.18,86,75,7.0
Fujin,2037375,47.26,132.03,1579578694,-15.43,88,0,3.72
Goiatuba,3462371,-18.01,-49.35,1579578694,22.49,92,98,2.15
Eureka,5563397,40.8,-124.16,1579578557,11.22,81,1,2.1
Grindavik,3416888,63.84,-22.43,1579578694,0.83,83,75,11.8
Saskylakh,2017155,71.92,114.08,1579578694,-29.93,97,97,3.45
Halifax,6324729,44.65,-63.57,1579578497,-9.27,78,75,3.1
Neiafu,4032420,-18.65,-173.98,1579578695,28.0,65,40,3.1
Upernavik,3418910,72.79,-56.15,1579578695,-19.34,57,92,4.54
Hambantota,1244926,6.12,81.12,1579578695,28.0,88,40,6.2
Acarau,3408368,-2.89,-40.12,1579578516,25.28,83,100,1.27
Cacapava do Sul,3468560,-30.51,-53.49,1579578695,22.5,91,100,2.38
The Valley,3573374,18.22,-63.06,1579578695,25.54,74,20,4.6
La Joya,3525570,18.67,-99.47,1579578696,23.33,44,100,0.45
Dilla,338998,6.41,38.31,1579578696,10.64,62,92,1.08
Kariba,889215,-16.52,28.8,1579578696,21.13,93,100,0.23
Green River,5826559,41.53,-109.47,1579578517,-8.0,78,75,2.6
Arlit,2447513,18.74,7.39,1579578696,17.27,22,0,4.8
Srandakan,1626493,-7.94,110.25,1579578696,31.04,55,26,1.29
Coahuayana Viejo,4013679,18.73,-103.68,1579578444,25.0,65,20,2.17
Batemans Bay,2176639,-35.72,150.18,1579578610,24.96,72,95,1.79
Guisa,3557332,20.25,-76.54,1579578697,24.0,88,75,1.5
Olafsvik,3414079,64.89,-23.71,1579578697,1.17,72,100,14.76
Canutama,3664716,-6.53,-64.38,1579578697,23.59,98,100,1.0
Atar,2381334,20.52,-13.05,1579578697,14.1,22,0,1.84
Plettenberg Bay,964712,-34.05,23.37,1579578697,19.2,88,96,5.27
Fayaoue,2141305,-20.65,166.53,1579578698,25.56,60,0,3.99
Belaya Gora,2126785,68.53,146.42,1579578698,-26.27,97,100,3.02
Campoverde,3733380,-8.48,-74.81,1579578698,29.0,79,75,2.6
Boden,606531,65.83,21.69,1579578698,4.0,74,18,5.1
Kaeo,2189343,-35.1,173.78,1579578698,26.77,57,0,1.79
Alugan,1731248,12.22,125.48,1579578698,25.4,75,100,4.18
Teknaf,1185095,20.86,92.31,1579578699,23.17,49,0,0.89
Coquimbo,3893629,-29.95,-71.34,1579578487,17.0,88,90,2.1
Kaitangata,2208248,-46.28,169.85,1579578574,19.44,69,100,5.48
Pevek,2122090,69.7,170.31,1579578550,-26.37,97,100,2.63
Abaza,1512205,52.66,90.09,1579578699,-16.32,84,100,2.4
Saldanha,3361934,-33.01,17.94,1579578699,17.0,88,0,4.1
Fulda,2923822,50.55,9.68,1579578699,-3.82,92,6,0.5
Les Cayes,3728097,18.2,-73.75,1579578700,26.5,77,91,3.99
Sinnamary,3380290,5.38,-52.95,1579578700,26.32,75,60,7.47
Marzuq,72181,14.4,46.47,1579578700,9.49,46,0,0.33
Cabras,2525478,39.93,8.53,1579578700,9.72,82,100,6.26
Yelizovo,2119538,53.19,158.38,1579578700,-10.0,66,74,2.0
Naze,1855540,28.37,129.48,1579578700,18.0,55,75,6.7
Yeniseysk,1485997,58.45,92.17,1579578701,-17.61,89,100,4.85
Itaituba,3397967,-4.28,-55.98,1579578701,23.17,97,22,0.7
Iqaluit,5983720,63.75,-68.51,1579578701,-31.84,67,5,6.2
Bhum,1275804,18.47,75.67,1579578701,22.18,60,0,6.41
Klaksvik,2618795,62.23,-6.59,1579578514,5.0,65,34,12.3
Vostok,2013279,46.49,135.88,1579578701,-14.75,90,100,2.18
Pedernales,3495137,18.04,-71.74,1579578702,19.76,83,87,2.33
Beidao,1816751,34.57,105.89,1579578702,2.57,54,0,0.45
Bulle,2661337,46.62,7.06,1579578702,-4.11,92,34,1.0
Varzea da Palma,3445459,-17.6,-44.73,1579578702,20.23,93,100,1.19
Taos,5493811,36.41,-105.57,1579578702,-3.55,79,90,2.56
Khatanga,2022572,71.97,102.5,1579578702,-33.47,97,81,3.28
Sitka,5557293,57.05,-135.33,1579578601,2.78,86,90,2.1
Nar'yan-Mar,523392,67.67,53.09,1579578703,-15.19,93,100,8.66
Vuktyl,470905,63.86,57.31,1579578703,-16.79,94,90,4.11
Sobolevo,525426,54.43,31.9,1579578703,1.57,88,100,6.79
Ponta do Sol,2264557,32.67,-17.1,1579578703,10.97,71,75,6.2
Kahului,5847411,20.89,-156.47,1579578703,22.49,57,40,10.8
Hithadhoo,1282256,-0.6,73.08,1579578487,28.41,79,0,5.0
Port Hedland,2063042,-20.32,118.57,1579578704,34.0,71,7,6.7
Port Macquarie,2152659,-31.43,152.92,1579578704,33.2,43,0,7.7
Ciudad Bolivar,3645532,8.12,-63.55,1579578704,25.92,69,100,5.24
Landeck,7872581,47.13,10.56,1579578704,-7.19,92,0,1.0
La Palma,5364022,33.85,-118.05,1579578704,13.56,72,90,2.1
Tiksi,2015306,71.69,128.87,1579578705,-32.38,88,12,1.63
Port Hardy,6111862,50.7,-127.42,1579578705,8.0,81,40,10.3
Arrondissement de Vire,2967970,48.92,-0.83,1579578705,5.2,80,27,2.1
Marsh Harbour,3571913,26.54,-77.06,1579578705,21.25,72,98,6.81
Pringsewu,1630639,-5.36,104.97,1579578705,27.56,76,90,2.51
Mar del Plata,3430863,-38.0,-57.56,1579578705,18.04,93,90,4.6
Ust'-Omchug,2120047,61.15,149.63,1579578706,-33.19,98,100,1.78
Ulaangom,1515029,49.98,92.07,1579578706,-20.2,88,60,1.43
Acajutla,3587498,13.59,-89.83,1579578607,21.67,77,0,3.13
Bambous Virieux,1106677,-20.34,57.76,1579578706,26.57,88,75,4.79
Urengoy,1488414,65.97,78.37,1579578706,-35.27,96,26,2.17
Ilulissat,3423146,69.22,-51.1,1579578706,-7.0,52,100,6.2
Havelock,4470244,34.88,-76.9,1579578522,-0.93,55,5,5.1
Waingapu,1622318,-9.66,120.26,1579578707,28.49,79,73,7.01
Baijiantan,1529626,45.63,85.18,1579578707,-11.94,93,89,0.57
Puerto Escondido,3520994,15.85,-97.07,1579578707,26.0,83,5,2.3
Gorontalo,1643837,0.54,123.06,1579578707,31.09,55,100,1.2
Takoradze,2294915,4.88,-1.76,1579578707,25.09,92,25,1.16
Sur,286245,22.57,59.53,1579578570,17.95,70,0,1.57
Vestmannaeyjar,3412093,63.44,-20.27,1579578707,3.34,82,100,12.98
Virginia Beach,4791259,36.85,-75.98,1579578412,-0.53,54,1,1.5
Elko,5703673,41.0,-115.5,1579578708,1.79,59,90,2.6
Yar-Sale,1486321,66.83,70.83,1579578708,-18.65,92,100,4.87
Kalabo,915471,-14.97,22.68,1579578709,19.8,92,100,2.6
Kurumkan,2021188,54.3,110.3,1579578709,-22.67,88,40,0.31
Rome,5134295,43.21,-75.46,1579578557,-9.32,67,90,6.7
Kawalu,1640902,-7.38,108.21,1579578709,29.82,58,46,1.21
Mokhsogollokh,2019867,61.47,128.92,1579578709,-29.43,98,0,0.68
Abha,110690,18.22,42.51,1579578710,11.0,87,20,3.6
Henties Bay,3356832,-22.12,14.28,1579578710,18.33,90,0,0.7
Tagusao,1684245,9.19,117.81,1579578710,27.38,73,50,6.86
Moyale,186180,3.52,39.06,1579578710,21.75,31,0,2.69
Codrington,2171099,-38.27,141.97,1579578710,14.59,65,12,2.63
Cochabamba,3919968,-17.39,-66.16,1579578710,20.0,60,40,1.5
Shestakovo,2016733,56.49,103.96,1579578711,-17.7,89,100,4.48
Fortuna,5563839,40.6,-124.16,1579578711,11.33,81,1,2.1
Nome,5870133,64.5,-165.41,1579578536,-11.0,92,90,4.1
Moi,3145617,58.46,6.55,1579578711,7.09,95,100,7.6
Nushki,1168749,29.55,66.02,1579578711,5.4,84,82,2.05
Vestmanna,2610343,62.16,-7.17,1579578712,5.0,65,35,12.3
Bulgan,2032201,48.81,103.53,1579578712,-16.26,74,38,1.31
Caravelas,3466980,-17.71,-39.25,1579578712,26.52,84,100,5.55
Umm Lajj,100926,25.02,37.27,1579578712,12.61,60,0,2.19
Sorland,3137469,67.67,12.69,1579578712,3.95,61,90,17.8
Lethem,3379316,3.38,-59.8,1579578712,27.97,57,61,4.47
Lewiston,4969398,44.1,-70.21,1579578713,-11.27,47,1,4.1
Iralaya,3608828,15.0,-83.23,1579578713,26.81,76,66,9.19
Kpandu,2299233,7.0,0.29,1579578713,22.73,82,54,0.93
Haines Junction,5969025,60.75,-137.51,1579578713,-12.94,95,79,3.22
Beloha,1067565,-25.17,45.05,1579578713,18.29,77,53,4.77
Uyuni,3901903,-20.46,-66.83,1579578713,14.85,57,90,3.54
Mae Sai,1152194,20.43,99.88,1579578713,23.05,73,0,2.1
Mandera,187896,3.94,41.87,1579578635,25.26,36,35,4.56
Bose,6457397,45.46,8.01,1579578714,-0.47,64,29,1.5
Sisimiut,3419842,66.94,-53.67,1579578714,-15.5,86,100,2.44
Borovoy,1508894,55.43,86.08,1579578714,-24.0,83,40,3.0
South Valley,5492450,35.01,-106.68,1579578468,4.45,69,75,1.5
Shashi,1795816,30.31,112.24,1579578714,7.78,81,100,1.78
Salta,3838233,-24.79,-65.41,1579578678,21.87,94,100,2.1
Mareeba,2158767,-17.0,145.43,1579578715,34.14,75,40,5.1
Vila Franca do Campo,3372472,37.72,-25.43,1579578715,14.0,71,75,3.1
Meulaboh,1214488,4.14,96.13,1579578715,26.96,84,100,3.78
Belmopan,3582672,17.25,-88.77,1579578715,22.12,88,75,4.1
Morgan City,4333811,29.7,-91.21,1579578715,5.72,52,1,4.6
Saint Anthony,5044290,45.02,-93.22,1579578479,-16.32,84,1,1.5
Popondetta,2088163,-8.75,148.25,1579578716,30.52,58,33,2.56
Baoshan,2038438,46.56,131.42,1579578716,-10.98,79,0,3.72
Saint George's,3579925,12.06,-61.75,1579578452,26.0,83,20,6.2
Port Blair,1259385,11.67,92.75,1579578485,27.34,80,16,6.72
Neryungri,2019309,56.67,124.65,1579578716,-22.18,91,100,0.31
Aswan,359792,24.09,32.91,1579578717,8.55,69,0,5.14
Birao,240210,10.28,22.79,1579578717,15.08,22,0,5.95
Toma,2354265,12.77,-2.88,1579578717,22.03,17,54,2.77
Lokosovo,1500399,61.13,74.82,1579578717,-19.03,98,100,2.18
Stornoway,2636790,58.21,-6.39,1579578717,7.1,100,75,3.6
Fairbanks,5861897,64.84,-147.72,1579578510,-24.7,83,20,0.81
Karratha,6620339,-20.74,116.85,1579578717,30.46,69,0,6.52
Palmer,4946620,42.16,-72.33,1579578631,-9.79,43,1,2.55
Paamiut,3421193,61.99,-49.67,1579578718,-2.91,54,99,6.12
Tabas,113659,33.6,56.92,1579578718,3.0,86,0,0.41
Garmsar,133964,35.22,52.34,1579578718,2.95,88,0,1.74
Luanda,2240449,-8.84,13.23,1579578630,27.0,83,40,1.5
Yinchuan,1786657,38.47,106.27,1579578718,-1.85,52,57,0.87
Waiouru,2180063,-39.48,175.67,1579578718,25.57,30,0,3.08
Berlevag,780687,70.86,29.09,1579578719,3.64,59,64,14.21
Casa Grande,5288636,32.88,-111.76,1579578719,17.43,37,1,3.1
Cubulco,3597837,15.13,-90.58,1579578719,16.0,72,20,10.3
Lukovetskiy,533418,64.3,41.92,1579578719,-1.0,100,90,2.0
Kortkeros,544397,61.81,51.58,1579578719,-7.0,92,75,3.0
Raudeberg,3146487,61.99,5.14,1579578719,5.42,87,100,7.2
Lavrentiya,4031637,65.58,-171.0,1579578719,-17.79,87,78,1.26
Ribeira Grande,3372707,38.52,-28.7,1579578719,13.44,80,100,8.65
Dalvik,2632287,65.97,-18.53,1579578720,2.0,51,75,22.6
Lagunas,3695844,-5.23,-75.68,1579578720,24.09,87,100,0.9
Saint George,5546220,37.1,-113.58,1579578720,9.58,39,90,8.7
Pingzhuang,2035453,42.04,119.29,1579578720,-4.96,61,5,5.89
Chornyanka,710653,46.65,33.36,1579578720,0.48,83,90,4.0
Makat,608872,47.65,53.35,1579578720,-4.06,93,100,4.65
Constitucion,3893726,-35.33,-72.42,1579578721,12.33,80,0,2.41
Broome,5110365,42.25,-75.83,1579578721,-12.64,72,75,3.1
Albanel,5883074,48.88,-72.45,1579578721,-16.0,65,75,5.7
Longyan,1802276,25.11,117.02,1579578721,20.56,99,100,1.23
Kyzyl-Suu,1527497,42.34,78.0,1579578721,-7.38,58,18,3.22
Pingyin,1798632,36.28,116.45,1579578721,7.22,47,100,6.22
Chissamba,3349580,-12.17,17.33,1579578721,17.16,96,100,1.45
Santa Cruz de la Sierra,3904906,-17.8,-63.17,1579578497,27.0,88,40,3.6
Kloulklubed,7671223,7.04,134.26,1579578722,29.0,70,75,4.6
Luderitz,3355672,-26.65,15.16,1579578722,17.0,88,0,0.5
Darab,137956,28.75,54.54,1579578722,6.96,74,0,0.51
College,5859699,64.86,-147.8,1579578513,-24.62,83,20,1.72
Ulladulla,2145554,-35.35,150.47,1579578722,26.42,42,1,4.1
Esim,2303611,4.87,-2.24,1579578723,25.09,92,25,1.16
Mitsamiouli,921786,-11.38,43.28,1579578723,28.0,83,40,5.7
Almaznyy,582447,48.04,40.05,1579578723,0.0,85,40,3.0
Poum,2138555,-20.23,164.02,1579578723,25.66,77,0,6.26
Ivolginsk,2023377,51.75,107.28,1579578723,-23.0,76,20,2.0
Saint-Louis,2246451,16.33,-15.0,1579578635,20.0,37,0,1.0
Clyde River,5924351,70.47,-68.59,1579578723,-25.0,75,90,6.2
Villanueva de la Serena,2509553,38.98,-5.8,1579578724,6.67,64,85,7.15
Cabedelo,3404558,-6.98,-34.83,1579578724,26.0,83,40,2.1
Grootfontein,3357114,-19.57,18.12,1579578724,20.31,30,36,5.21
Natal,3394023,-5.79,-35.21,1579578568,26.0,88,20,2.6
Alofi,4036284,-19.06,-169.92,1579578724,28.0,61,40,4.1
Oktyabrskiy,515879,54.48,53.47,1579578725,-4.53,97,94,1.82
Saint-Augustin,6137462,51.23,-58.65,1579578725,-16.18,76,66,4.31
Sola,2134814,-13.88,167.55,1579578512,30.0,70,75,2.6
Casa Blanca,3519231,18.15,-97.13,1579578725,12.37,92,100,2.4
Kuloy,539385,61.03,42.49,1579578725,-0.92,93,100,4.49
Mezen,527321,65.85,44.24,1579578725,-5.1,94,100,6.82
Tonantins,3661894,-2.87,-67.8,1579578726,23.32,97,75,0.82
Laas,3175096,46.62,10.7,1579578512,-4.82,72,5,2.6
Chalon-sur-Saone,3027484,46.78,4.85,1579578726,-2.71,86,0,0.5
Namatanai,2090021,-3.67,152.43,1579578726,29.17,74,9,7.99
Kiunga,2093846,-6.12,141.29,1579578726,32.99,52,23,1.43
North Bend,5742974,43.41,-124.22,1579578555,10.26,76,90,4.1
Maryville,4639848,35.76,-83.97,1579578727,-4.11,58,90,4.1
Turukhansk,1488903,65.82,87.98,1579578727,-38.32,99,99,1.37
Lusaka,909137,-15.41,28.29,1579578580,20.0,94,40,1.0
Konibodom,1514891,40.28,70.44,1579578727,0.0,70,40,1.0
Springbok,3361142,-29.66,17.89,1579578728,10.77,87,0,0.35
Ixtapa,4004293,20.7,-105.2,1579578728,25.77,83,5,1.5
Port-Gentil,2396518,-0.72,8.78,1579578728,28.11,76,83,4.59
Erzin,296852,36.96,36.2,1579578728,3.81,100,75,2.1
Dunedin,2191562,-45.87,170.5,1579578728,17.82,69,100,7.24
Nhulunbuy,2064735,-12.23,136.77,1579578728,33.0,59,75,6.7
Yanam,1252795,16.73,82.22,1579578729,26.0,69,2,4.1
Sioux Lookout,6148373,50.1,-91.92,1579578729,-14.41,84,5,5.7
Sidrolandia,3447597,-20.93,-54.96,1579578729,27.0,69,0,2.6
Namwala,901766,-15.75,26.44,1579578729,18.84,96,100,2.54
Mitu,3674676,1.2,-70.17,1579578729,22.88,96,1,0.64
Bam,141736,29.11,58.36,1579578729,7.15,74,94,1.42
Bolshaya Glushitsa,486923,50.24,43.59,1579578730,0.0,89,99,3.58
Tornio,634096,65.85,24.13,1579578730,3.0,82,0,4.1
Tabou,2281120,4.42,-7.35,1579578730,24.08,93,62,0.51
Kiryat Gat,293842,31.61,34.76,1579578730,9.84,87,40,2.6
Selenginsk,2017059,52.01,106.86,1579578730,-23.0,76,20,2.0
Andenes,3163146,69.31,16.12,1579578636,1.34,80,89,11.3
Urusha,2014078,54.05,122.9,1579578731,-24.61,92,100,0.16
Synya,485215,65.37,58.04,1579578731,-16.77,91,100,5.87
Mokrous,525719,51.23,47.52,1579578731,-1.94,96,99,3.74
Okhotsk,2122605,59.38,143.3,1579578731,-25.26,74,0,3.22
Liverpool,2644210,53.41,-2.98,1579578732,3.82,100,75,1.0
Ilhabela,3461425,-23.78,-45.36,1579578732,23.82,73,100,4.16
Batticaloa,1250161,7.71,81.69,1579578454,26.52,80,38,2.97
Baharly,162158,38.44,57.43,1579578732,-0.77,97,100,2.21
Pundaguitan,1698289,6.37,126.17,1579578732,26.62,77,9,4.09
General Roca,3855065,-39.03,-67.58,1579578450,25.0,41,20,2.6
Matara,1235846,5.95,80.54,1579578733,25.44,85,78,3.14
Deputatsky,2028164,69.3,139.9,1579578733,-31.41,91,55,2.22
Clonakilty,2965402,51.62,-8.87,1579578733,4.92,75,90,2.1
Novomykolayivka,699413,47.98,35.91,1579578733,0.0,93,90,4.0
Leningradskiy,2123814,69.38,178.42,1579578497,-21.35,87,100,5.71
Manggar,1636426,-2.88,108.27,1579578734,28.05,78,90,3.91
Canita,3713131,9.21,-78.88,1579578734,26.18,88,40,1.0
Ankara,323786,39.92,32.85,1579578734,-2.63,68,40,2.1
Faanui,4034551,-16.48,-151.75,1579578734,27.75,74,21,4.28
Leh,1264976,34.17,77.58,1579578504,-19.93,92,93,1.74
Maloy,3146487,61.94,5.11,1579578734,5.46,87,100,7.2
Bitung,1648636,1.45,125.18,1579578734,33.0,55,20,4.6
Forsytheganj,10722858,52.63,29.73,1579578735,0.42,84,100,6.91
Weligama,1223738,5.97,80.42,1579578735,25.44,85,78,3.14
Balkanabat,161616,39.51,54.37,1579578735,-4.0,79,43,1.26
Gualaquiza,3657661,-3.4,-78.55,1579578735,17.39,97,43,0.4
Saint-Joseph,6690296,-21.37,55.62,1579578735,23.12,83,100,2.6
Zarechnyy,464625,53.2,45.19,1579578735,1.11,74,96,5.55
Williamsport,5219585,41.24,-77.0,1579578639,-9.72,56,1,3.1
Asosa,343292,10.07,34.53,1579578736,17.79,46,78,3.32
Sycow,3083921,51.31,17.72,1579578736,-2.99,100,0,1.0
Vila Velha,3445026,-20.33,-40.29,1579578558,21.86,94,90,2.1
Oinacu,671902,43.95,26.02,1579578736,-3.4,92,0,0.5
Orlik,1496073,52.52,99.83,1579578736,-28.26,85,0,1.89
Taicheng,1790959,38.73,113.23,1579578737,-5.47,70,94,1.11
Liepaja,457955,56.54,21.04,1579578737,6.0,100,80,8.7
Barranca,3946820,-10.75,-77.77,1579578723,21.34,93,100,4.79
Bontang,1648186,0.13,117.5,1579578737,28.43,73,1,6.24
Dudinka,1507116,69.41,86.18,1579578737,-40.0,65,40,1.0
Fojnica,3200829,43.96,17.9,1579578542,-2.0,79,90,3.1
Maragogi,3395458,-9.01,-35.22,1579578738,26.8,76,2,4.17
Taylor,4735729,32.3,-99.83,1579578738,6.6,42,90,3.04
Kidal,2455290,18.44,1.41,1579578738,17.56,22,36,4.46
Okato,2185763,-39.2,173.88,1579578738,21.57,64,0,3.13
Nikki,2392505,9.94,3.21,1579578738,22.64,32,40,1.17
Porto-Novo,2392087,6.5,2.6,1579578738,26.0,88,20,1.0
Ust'-Koksa,1488167,50.27,85.61,1579578739,-16.52,94,100,4.18
Ambovombe,1079048,-25.17,46.08,1579578739,20.62,68,61,5.65
Lagoa,3372964,39.05,-27.98,1579578636,15.44,72,100,7.64
Chornobayivka,710715,46.69,32.55,1579578740,0.48,81,90,4.0
Puerto Colombia,3671497,10.99,-74.95,1579578713,25.0,88,35,2.6
Biak,1637001,-0.91,122.88,1579578740,28.77,69,100,3.09
Omsukchan,2122493,62.53,155.8,1579578740,-29.13,97,100,1.88
Chaman,1181611,30.92,66.45,1579578740,2.09,96,100,0.66
Pimentel,3693584,-6.84,-79.93,1579578740,19.0,29,60,5.1
Wamba,2319257,8.93,8.6,1579578741,21.2,30,22,1.94
La Romana,3500957,18.43,-68.97,1579578511,22.42,94,40,2.66
Uruacu,3445713,-14.52,-49.14,1579578741,22.17,94,100,0.83
Lata,2738381,40.16,-8.33,1579578741,4.83,60,10,3.6
Katsuura,2112309,35.13,140.3,1579578502,10.71,50,20,11.3
Hobyo,57000,5.35,48.53,1579578742,25.19,73,76,7.59
Bacolod City,1729564,10.67,122.95,1579578743,26.87,58,73,3.9
Nishihara,1855342,26.18,127.76,1579578497,19.65,59,40,4.1
Salinas,5391295,36.68,-121.66,1579578743,9.83,87,75,1.08
Chern,569116,53.45,36.91,1579578743,-1.05,93,100,6.36
Kuytun,2021093,54.34,101.5,1579578744,-21.79,85,28,1.56
Meybod,124193,32.25,54.02,1579578744,0.0,84,0,0.35
Togur,1489499,58.36,82.83,1579578744,-17.81,93,100,4.62
Laguna,5364271,38.42,-121.42,1579578693,8.82,93,75,2.39
Kolpashevo,1502862,58.31,82.91,1579578744,-17.81,93,100,4.62
Ponoka,6109273,52.68,-113.58,1579578744,1.78,55,75,3.1
Harbour Breton,5970478,47.48,-55.8,1579578744,-6.41,71,62,4.15
Ketchikan,5554428,55.34,-131.65,1579578745,4.44,100,90,1.59
Erzurum,315367,40.0,41.5,1579578697,-9.0,92,40,1.5
Vardo,777019,70.37,31.11,1579578745,-2.0,79,100,6.7
Fes,2548885,34.04,-5.0,1579578745,3.0,93,0,4.1
Heishan,2036959,41.69,122.11,1579578745,1.51,51,0,9.52
Ponta Delgada,3372783,37.73,-25.67,1579578516,14.0,71,75,3.1
Mnogovershinnyy,2019935,53.94,139.92,1579578745,-16.45,78,0,2.9
Bhattiprolu,1276054,16.1,80.78,1579578745,26.0,83,20,2.1
Alihe,2038665,50.57,123.72,1579578746,-18.09,79,100,0.32
Pitanga,3453478,-24.76,-51.76,1579578746,18.96,73,26,2.24
Matagami,6067747,49.75,-77.63,1579578746,-19.0,91,1,3.6
Marabba,370510,12.35,32.18,1579578746,15.17,20,0,5.02
Mawlaik,1310120,23.63,94.42,1579578746,20.62,54,0,0.82
Tripoli,2210247,32.88,13.19,1579578746,15.37,64,0,12.5
Mazamari,3935102,-11.33,-74.53,1579578747,16.59,96,100,1.91
Katobu,1640972,-4.94,122.53,1579578747,31.83,57,64,3.52
Kalmunai,1242110,7.42,81.82,1579578747,27.6,76,92,7.17
Sirte,2210554,31.21,16.59,1579578747,10.82,65,0,5.5
Wewak,2083537,-3.55,143.63,1579578747,29.47,68,6,6.49
Boyolangu,1648082,-8.12,111.89,1579578747,30.72,59,96,0.58
Maceio,3395981,-9.67,-35.74,1579578689,23.0,94,20,2.1
Muli,1337617,2.92,73.57,1579578747,28.24,80,1,6.91
Malchevskaya,526558,49.06,40.36,1579578748,-1.45,90,100,5.22
Auki,2109701,-8.77,160.7,1579578748,29.17,69,61,3.41
Grand-Santi,3381538,4.25,-54.38,1579578748,22.36,90,19,1.3
Charyshskoye,1508427,51.4,83.56,1579578748,-11.39,78,100,1.35
Laranjeiras do Sul,3458746,-25.41,-52.42,1579578748,20.19,90,67,1.77
Sovetskiy,1491230,61.36,63.58,1579578749,-21.03,90,25,3.7
Narrabri,2155742,-30.32,149.78,1579578749,32.1,13,0,5.1
Nelson Bay,2155562,-32.72,152.15,1579578749,32.67,18,0,7.2
Gualeguay,3433663,-33.14,-59.31,1579578749,24.59,81,2,2.71
Moravske Budejovice,3070323,49.05,15.81,1579578750,-2.62,90,75,1.0
Goderich,5962442,43.75,-81.72,1579578623,-4.37,78,99,0.45
Byron Bay,2172880,-28.65,153.62,1579578679,32.93,78,0,8.7
La Ronge,6050066,55.1,-105.28,1579578636,-12.0,78,90,1.0
Elizabeth City,4465088,36.29,-76.25,1579578473,-0.52,62,1,6.2
Kavieng,2094342,-2.57,150.8,1579578751,28.54,74,2,5.17
Sawakin,367544,19.11,37.33,1579578751,21.37,74,83,9.6
Bari,6542001,41.12,16.85,1579578751,5.41,81,100,2.6
Quryq,609919,43.2,51.65,1579578518,1.12,80,100,2.07
Santiago del Estero,3835869,-27.8,-64.26,1579578580,26.92,80,100,2.82
Santa Maria del Oro,3984078,25.93,-105.37,1579578752,12.6,69,29,1.26
Asau,686090,46.43,26.4,1579578752,-2.46,79,100,4.6
Watertown,4954611,42.37,-71.18,1579578500,-8.71,37,1,2.1
Bandarbeyla,64814,9.49,50.81,1579578521,24.34,75,50,10.46
Khandyga,2022773,62.67,135.6,1579578752,-29.63,97,99,0.05
Cayenne,3382160,4.93,-52.33,1579578753,26.0,78,90,3.6
Tezu,1254709,27.92,96.17,1579578506,12.84,87,100,1.52
High Level,5975004,58.52,-117.14,1579578527,-7.0,92,90,3.1
Carbonia,2525362,39.17,8.52,1579578753,14.69,72,40,12.9
Kichera,2022129,55.94,110.1,1579578753,-23.27,76,99,0.3
Calafell,3127066,41.2,1.57,1579578753,7.34,87,100,8.7
Atikokan,5888001,48.76,-91.62,1579578753,-13.16,93,96,4.39
Talnakh,1490256,69.49,88.4,1579578632,-40.0,72,40,1.0
